{
"type": "FeatureCollection",
"name": "ZipCar_052019",
"crs": { "type": "name", "properties": { "name": "urn:ogc:def:crs:OGC:1.3:CRS84" } },
"features": [
{ "type": "Feature", "properties": { "OBJECTID": 1, "LOCATION": "1 Kilmarnock St - Trilogy Garage - Level 1", "LATITUDE": 42.3441136, "LONGITUDE": -71.1012936 }, "geometry": { "type": "Point", "coordinates": [ -71.101293600076872, 42.3441135988094 ] } },
{ "type": "Feature", "properties": { "OBJECTID": 2, "LOCATION": "10 Merriam St - The Brewery - Jamaica Plain", "LATITUDE": 42.3137942, "LONGITUDE": -71.1033697 }, "geometry": { "type": "Point", "coordinates": [ -71.103369700378309, 42.313794199115243 ] } },
{ "type": "Feature", "properties": { "OBJECTID": 3, "LOCATION": "10 Tafthill Ter", "LATITUDE": 42.28740124, "LONGITUDE": -71.12910017 }, "geometry": { "type": "Point", "coordinates": [ -71.1291001702335, 42.287401238784135 ] } },
{ "type": "Feature", "properties": { "OBJECTID": 4, "LOCATION": "100 Belvidere St - Service Entrance B - Prudential Ctr", "LATITUDE": 42.3458902, "LONGITUDE": -71.0822837 }, "geometry": { "type": "Point", "coordinates": [ -71.082283699566787, 42.345890199321268 ] } },
{ "type": "Feature", "properties": { "OBJECTID": 5, "LOCATION": "100 Cambridge St - Boston - Level 1", "LATITUDE": 42.3609924, "LONGITUDE": -71.0624379 }, "geometry": { "type": "Point", "coordinates": [ -71.062437900454469, 42.360992399103196 ] } },
{ "type": "Feature", "properties": { "OBJECTID": 6, "LOCATION": "100 Clarendon St - Clarendon St Garage - Level 6", "LATITUDE": 42.3480933, "LONGITUDE": -71.0743221 }, "geometry": { "type": "Point", "coordinates": [ -71.074322099905359, 42.348093298645836 ] } },
{ "type": "Feature", "properties": { "OBJECTID": 7, "LOCATION": "100 Lovejoy Pl - Lovejoy Wharf", "LATITUDE": 42.3671694, "LONGITUDE": -71.0590291 }, "geometry": { "type": "Point", "coordinates": [ -71.059029100143519, 42.367169399027397 ] } },
{ "type": "Feature", "properties": { "OBJECTID": 8, "LOCATION": "101 Beverly St - The Beverly", "LATITUDE": 42.3652715, "LONGITUDE": -71.0590624 }, "geometry": { "type": "Point", "coordinates": [ -71.059062400158894, 42.365271498654394 ] } },
{ "type": "Feature", "properties": { "OBJECTID": 9, "LOCATION": "101 S Huntington Ave - Serenity Apts - Level P2", "LATITUDE": 42.329474, "LONGITUDE": -71.111533 }, "geometry": { "type": "Point", "coordinates": [ -71.111532999697147, 42.329473999469549 ] } },
{ "type": "Feature", "properties": { "OBJECTID": 10, "LOCATION": "1085 Boylston St (Rear Lot)", "LATITUDE": 42.3470023, "LONGITUDE": -71.0888683 }, "geometry": { "type": "Point", "coordinates": [ -71.088868299745727, 42.347002299492821 ] } },
{ "type": "Feature", "properties": { "OBJECTID": 11, "LOCATION": "11 Damrell St", "LATITUDE": 42.33319995, "LONGITUDE": -71.05655267 }, "geometry": { "type": "Point", "coordinates": [ -71.056552670387845, 42.333199948868199 ] } },
{ "type": "Feature", "properties": { "OBJECTID": 12, "LOCATION": "110 Queensberry St (Rear Lot)", "LATITUDE": 42.341722, "LONGITUDE": -71.100028 }, "geometry": { "type": "Point", "coordinates": [ -71.100027999692742, 42.341721999130193 ] } },
{ "type": "Feature", "properties": { "OBJECTID": 13, "LOCATION": "12 South St - Loring Greenough House (Rear Lot)", "LATITUDE": 42.309498, "LONGITUDE": -71.1148879 }, "geometry": { "type": "Point", "coordinates": [ -71.114887900459422, 42.309497999309677 ] } },
{ "type": "Feature", "properties": { "OBJECTID": 14, "LOCATION": "125 Western Ave - iLab - Harvard University", "LATITUDE": 42.36404162, "LONGITUDE": -71.12461845 }, "geometry": { "type": "Point", "coordinates": [ -71.124618449478206, 42.364041619508342 ] } },
{ "type": "Feature", "properties": { "OBJECTID": 15, "LOCATION": "126 Border St - Boston East Apts", "LATITUDE": 42.3734268, "LONGITUDE": -71.0408973 }, "geometry": { "type": "Point", "coordinates": [ -71.040897300225623, 42.373426799395872 ] } },
{ "type": "Feature", "properties": { "OBJECTID": 16, "LOCATION": "126 Dartmouth St - Dartmouth St Garage - Level 1", "LATITUDE": 42.3466428, "LONGITUDE": -71.0756451 }, "geometry": { "type": "Point", "coordinates": [ -71.075645099637001, 42.346642799363856 ] } },
{ "type": "Feature", "properties": { "OBJECTID": 17, "LOCATION": "1271 Boylston St - The Verb Hotel", "LATITUDE": 42.34502162, "LONGITUDE": -71.09712752 }, "geometry": { "type": "Point", "coordinates": [ -71.09712751950866, 42.345021618922679 ] } },
{ "type": "Feature", "properties": { "OBJECTID": 18, "LOCATION": "13 Stillings St - Stillings St Garage - Level 2", "LATITUDE": 42.350491, "LONGITUDE": -71.0472678 }, "geometry": { "type": "Point", "coordinates": [ -71.047267799865935, 42.350490998709908 ] } },
{ "type": "Feature", "properties": { "OBJECTID": 19, "LOCATION": "131 Dartmouth St - Boston - Level P1", "LATITUDE": 42.3469456, "LONGITUDE": -71.0750738 }, "geometry": { "type": "Point", "coordinates": [ -71.07507379996305, 42.346945598637895 ] } },
{ "type": "Feature", "properties": { "OBJECTID": 20, "LOCATION": "1330 Boylston St - Level P2", "LATITUDE": 42.343948, "LONGITUDE": -71.098929 }, "geometry": { "type": "Point", "coordinates": [ -71.098929000303897, 42.343947999472363 ] } },
{ "type": "Feature", "properties": { "OBJECTID": 21, "LOCATION": "138 Arlington St - Boston", "LATITUDE": 42.348717, "LONGITUDE": -71.0692801 }, "geometry": { "type": "Point", "coordinates": [ -71.069280100246871, 42.348716998992707 ] } },
{ "type": "Feature", "properties": { "OBJECTID": 22, "LOCATION": "139 W Newton St (Rear Alley)", "LATITUDE": 42.3421882, "LONGITUDE": -71.0773721 }, "geometry": { "type": "Point", "coordinates": [ -71.077372099680304, 42.342188199435128 ] } },
{ "type": "Feature", "properties": { "OBJECTID": 23, "LOCATION": "140 N Beacon St - Brighton", "LATITUDE": 42.3551956, "LONGITUDE": -71.1462915 }, "geometry": { "type": "Point", "coordinates": [ -71.14629149947983, 42.355195598953962 ] } },
{ "type": "Feature", "properties": { "OBJECTID": 24, "LOCATION": "144 Charles St - Charles St Garage", "LATITUDE": 42.3598814, "LONGITUDE": -71.0709344 }, "geometry": { "type": "Point", "coordinates": [ -71.070934399935041, 42.35988139943553 ] } },
{ "type": "Feature", "properties": { "OBJECTID": 25, "LOCATION": "146 W Concord St (Rear Alley)", "LATITUDE": 42.339722, "LONGITUDE": -71.0774969 }, "geometry": { "type": "Point", "coordinates": [ -71.077496900522874, 42.339721999122979 ] } },
{ "type": "Feature", "properties": { "OBJECTID": 26, "LOCATION": "16 Hamlet St", "LATITUDE": 42.31792812, "LONGITUDE": -71.06524526 }, "geometry": { "type": "Point", "coordinates": [ -71.065245260157639, 42.317928119096486 ] } },
{ "type": "Feature", "properties": { "OBJECTID": 27, "LOCATION": "161 S Huntington Ave - Olmsted Pl", "LATITUDE": 42.32677386, "LONGITUDE": -71.11144803000001 }, "geometry": { "type": "Point", "coordinates": [ -71.111448030054461, 42.32677385882846 ] } },
{ "type": "Feature", "properties": { "OBJECTID": 28, "LOCATION": "166 Terrace St - Oliver Lofts (South Lot)", "LATITUDE": 42.32611008, "LONGITUDE": -71.09858176 }, "geometry": { "type": "Point", "coordinates": [ -71.098581759660675, 42.326110078840451 ] } },
{ "type": "Feature", "properties": { "OBJECTID": 29, "LOCATION": "17 Beacon St - Beacon Hill", "LATITUDE": 42.358395, "LONGITUDE": -71.062215 }, "geometry": { "type": "Point", "coordinates": [ -71.062214999905876, 42.358394998756935 ] } },
{ "type": "Feature", "properties": { "OBJECTID": 30, "LOCATION": "1730 Comm Ave - Allston (Rear Lot)", "LATITUDE": 42.34096018, "LONGITUDE": -71.14905625 }, "geometry": { "type": "Point", "coordinates": [ -71.149056249632707, 42.340960178641033 ] } },
{ "type": "Feature", "properties": { "OBJECTID": 31, "LOCATION": "177 London St", "LATITUDE": 42.3742972, "LONGITUDE": -71.03713985 }, "geometry": { "type": "Point", "coordinates": [ -71.037139850544321, 42.374297199169234 ] } },
{ "type": "Feature", "properties": { "OBJECTID": 32, "LOCATION": "18 Peninsula Pl - Harbor Point Apts", "LATITUDE": 42.3205235, "LONGITUDE": -71.044855 }, "geometry": { "type": "Point", "coordinates": [ -71.044855000421094, 42.320523499244473 ] } },
{ "type": "Feature", "properties": { "OBJECTID": 33, "LOCATION": "191 Adams St", "LATITUDE": 42.30251965, "LONGITUDE": -71.06048062000001 }, "geometry": { "type": "Point", "coordinates": [ -71.060480619448498, 42.302519648638622 ] } },
{ "type": "Feature", "properties": { "OBJECTID": 34, "LOCATION": "197 Maverick St - Swish N'Swash", "LATITUDE": 42.36869726, "LONGITUDE": -71.03601546 }, "geometry": { "type": "Point", "coordinates": [ -71.036015459757095, 42.368697259334169 ] } },
{ "type": "Feature", "properties": { "OBJECTID": 35, "LOCATION": "199 N Harvard St - Continuum - Harvard University", "LATITUDE": 42.3632904, "LONGITUDE": -71.1296762 }, "geometry": { "type": "Point", "coordinates": [ -71.129676200478912, 42.363290399209468 ] } },
{ "type": "Feature", "properties": { "OBJECTID": 36, "LOCATION": "2 Seaport Ln - Level P2 East", "LATITUDE": 42.3489344, "LONGITUDE": -71.0407734 }, "geometry": { "type": "Point", "coordinates": [ -71.040773400045225, 42.348934398932244 ] } },
{ "type": "Feature", "properties": { "OBJECTID": 37, "LOCATION": "2005 Comm Ave - Brighton (Rear Alley)", "LATITUDE": 42.3404151, "LONGITUDE": -71.1595719 }, "geometry": { "type": "Point", "coordinates": [ -71.15957190043774, 42.340415099105833 ] } },
{ "type": "Feature", "properties": { "OBJECTID": 38, "LOCATION": "209 Cambridge St - Charles River Plaza - Boston", "LATITUDE": 42.3613802, "LONGITUDE": -71.0665615 }, "geometry": { "type": "Point", "coordinates": [ -71.066561499395476, 42.361380198774739 ] } },
{ "type": "Feature", "properties": { "OBJECTID": 39, "LOCATION": "21 Harvard Ave - Allston", "LATITUDE": 42.3549487, "LONGITUDE": -71.1329642 }, "geometry": { "type": "Point", "coordinates": [ -71.13296420043315, 42.354948698626309 ] } },
{ "type": "Feature", "properties": { "OBJECTID": 40, "LOCATION": "210 W Canton St (Rear Alley)", "LATITUDE": 42.3451014, "LONGITUDE": -71.0771055 }, "geometry": { "type": "Point", "coordinates": [ -71.077105500523501, 42.345101398688968 ] } },
{ "type": "Feature", "properties": { "OBJECTID": 41, "LOCATION": "225 Centre St - Jamaica Plain", "LATITUDE": 42.32362173, "LONGITUDE": -71.09902811000001 }, "geometry": { "type": "Point", "coordinates": [ -71.099028109888067, 42.323621729291148 ] } },
{ "type": "Feature", "properties": { "OBJECTID": 42, "LOCATION": "240 Kelton St", "LATITUDE": 42.3466786, "LONGITUDE": -71.1359857 }, "geometry": { "type": "Point", "coordinates": [ -71.135985699983351, 42.346678598682594 ] } },
{ "type": "Feature", "properties": { "OBJECTID": 43, "LOCATION": "26 Allston St", "LATITUDE": 42.3522544, "LONGITUDE": -71.1350507 }, "geometry": { "type": "Point", "coordinates": [ -71.135050699592298, 42.352254399202046 ] } },
{ "type": "Feature", "properties": { "OBJECTID": 44, "LOCATION": "269 Commercial St - Sargent's Wharf - Boston", "LATITUDE": 42.36429572, "LONGITUDE": -71.05076601 }, "geometry": { "type": "Point", "coordinates": [ -71.05076600945479, 42.364295719286595 ] } },
{ "type": "Feature", "properties": { "OBJECTID": 45, "LOCATION": "275 Medford St - Charlestown", "LATITUDE": 42.3812643, "LONGITUDE": -71.0615942 }, "geometry": { "type": "Point", "coordinates": [ -71.061594199425798, 42.381264299439003 ] } },
{ "type": "Feature", "properties": { "OBJECTID": 46, "LOCATION": "275 Washington St - Pi Alley Garage - Level 2", "LATITUDE": 42.3578009, "LONGITUDE": -71.0582147 }, "geometry": { "type": "Point", "coordinates": [ -71.058214700268977, 42.357800899131028 ] } },
{ "type": "Feature", "properties": { "OBJECTID": 47, "LOCATION": "29 Austin St - Bunker Hill Mall", "LATITUDE": 42.37476448, "LONGITUDE": -71.06664531 }, "geometry": { "type": "Point", "coordinates": [ -71.0666453105367, 42.374764479511306 ] } },
{ "type": "Feature", "properties": { "OBJECTID": 48, "LOCATION": "290 Commercial St - VPNE Parking - Boston", "LATITUDE": 42.3646111, "LONGITUDE": -71.0513433 }, "geometry": { "type": "Point", "coordinates": [ -71.051343299963747, 42.36461109883691 ] } },
{ "type": "Feature", "properties": { "OBJECTID": 49, "LOCATION": "291 Independence Dr - Harvard Vanguard", "LATITUDE": 42.2961816, "LONGITUDE": -71.1586543 }, "geometry": { "type": "Point", "coordinates": [ -71.158654300423706, 42.296181598975942 ] } },
{ "type": "Feature", "properties": { "OBJECTID": 50, "LOCATION": "30 Holyoke St (Rear Alley)", "LATITUDE": 42.344797, "LONGITUDE": -71.078393 }, "geometry": { "type": "Point", "coordinates": [ -71.078393000449395, 42.344796998902744 ] } },
{ "type": "Feature", "properties": { "OBJECTID": 51, "LOCATION": "30 Ruggles St", "LATITUDE": 42.33158299, "LONGITUDE": -71.08364351 }, "geometry": { "type": "Point", "coordinates": [ -71.083643510111244, 42.331582989486009 ] } },
{ "type": "Feature", "properties": { "OBJECTID": 52, "LOCATION": "300 Harrison Ave - Ink Block Apts", "LATITUDE": 42.34566981, "LONGITUDE": -71.06270306 }, "geometry": { "type": "Point", "coordinates": [ -71.062703060186877, 42.345669809394742 ] } },
{ "type": "Feature", "properties": { "OBJECTID": 53, "LOCATION": "301 Hancock St - Dorchester", "LATITUDE": 42.3082094, "LONGITUDE": -71.0586484 }, "geometry": { "type": "Point", "coordinates": [ -71.05864839985901, 42.308209399111277 ] } },
{ "type": "Feature", "properties": { "OBJECTID": 54, "LOCATION": "3042 Washington St - Roxbury", "LATITUDE": 42.31648165, "LONGITUDE": -71.09741476000001 }, "geometry": { "type": "Point", "coordinates": [ -71.097414760359456, 42.316481649266613 ] } },
{ "type": "Feature", "properties": { "OBJECTID": 55, "LOCATION": "33 Arch St - Level P7", "LATITUDE": 42.3560862, "LONGITUDE": -71.0581806 }, "geometry": { "type": "Point", "coordinates": [ -71.058180599855746, 42.35608619913976 ] } },
{ "type": "Feature", "properties": { "OBJECTID": 56, "LOCATION": "332 Chestnut Hill Ave - Shell Gas", "LATITUDE": 42.3374997, "LONGITUDE": -71.1522147 }, "geometry": { "type": "Point", "coordinates": [ -71.152214700585063, 42.337499698862196 ] } },
{ "type": "Feature", "properties": { "OBJECTID": 57, "LOCATION": "35 Gardner St\/Linden St", "LATITUDE": 42.35348883, "LONGITUDE": -71.12968047 }, "geometry": { "type": "Point", "coordinates": [ -71.129680469742226, 42.353488829288139 ] } },
{ "type": "Feature", "properties": { "OBJECTID": 58, "LOCATION": "35 Thomson Pl - Zipcar Home Office", "LATITUDE": 42.35136875, "LONGITUDE": -71.04726645 }, "geometry": { "type": "Point", "coordinates": [ -71.047266450273099, 42.351368749115458 ] } },
{ "type": "Feature", "properties": { "OBJECTID": 59, "LOCATION": "353 Dudley St", "LATITUDE": 42.32649842, "LONGITUDE": -71.07604396000001 }, "geometry": { "type": "Point", "coordinates": [ -71.076043959810093, 42.32649841871438 ] } },
{ "type": "Feature", "properties": { "OBJECTID": 60, "LOCATION": "36 Wait St - Mission Hill", "LATITUDE": 42.3322209, "LONGITUDE": -71.1061341 }, "geometry": { "type": "Point", "coordinates": [ -71.106134099828921, 42.332220899353302 ] } },
{ "type": "Feature", "properties": { "OBJECTID": 61, "LOCATION": "3611-3615 Washington St - MetroMark Apartments - Jamaica Plain", "LATITUDE": 42.3021734, "LONGITUDE": -71.1117506 }, "geometry": { "type": "Point", "coordinates": [ -71.111750599649611, 42.302173399395748 ] } },
{ "type": "Feature", "properties": { "OBJECTID": 62, "LOCATION": "370 Western Ave - Brighton Mills - Harvard University", "LATITUDE": 42.36240732, "LONGITUDE": -71.13704253 }, "geometry": { "type": "Point", "coordinates": [ -71.137042529537482, 42.362407318788541 ] } },
{ "type": "Feature", "properties": { "OBJECTID": 63, "LOCATION": "38 Ransom Rd", "LATITUDE": 42.3427023, "LONGITUDE": -71.1456487 }, "geometry": { "type": "Point", "coordinates": [ -71.145648700511188, 42.342702299199225 ] } },
{ "type": "Feature", "properties": { "OBJECTID": 64, "LOCATION": "395 Chestnut Hill Ave - AC Marriott", "LATITUDE": 42.33444665, "LONGITUDE": -71.15104348 }, "geometry": { "type": "Point", "coordinates": [ -71.151043480040755, 42.334446648820986 ] } },
{ "type": "Feature", "properties": { "OBJECTID": 65, "LOCATION": "398 Market St", "LATITUDE": 42.3499565, "LONGITUDE": -71.1529966 }, "geometry": { "type": "Point", "coordinates": [ -71.152996600046961, 42.349956499327455 ] } },
{ "type": "Feature", "properties": { "OBJECTID": 66, "LOCATION": "4 Emerson Place - West End Garage - Level P1", "LATITUDE": 42.3642911, "LONGITUDE": -71.0682655 }, "geometry": { "type": "Point", "coordinates": [ -71.068265500122649, 42.36429109942987 ] } },
{ "type": "Feature", "properties": { "OBJECTID": 67, "LOCATION": "411 D St (Flats on D)", "LATITUDE": 42.34442843, "LONGITUDE": -71.04383628 }, "geometry": { "type": "Point", "coordinates": [ -71.043836279648445, 42.344428429115112 ] } },
{ "type": "Feature", "properties": { "OBJECTID": 68, "LOCATION": "42 Charles St", "LATITUDE": 42.2999342, "LONGITUDE": -71.0634287 }, "geometry": { "type": "Point", "coordinates": [ -71.063428699918475, 42.299934198786346 ] } },
{ "type": "Feature", "properties": { "OBJECTID": 69, "LOCATION": "446 Marlborough St", "LATITUDE": 42.3497303, "LONGITUDE": -71.0913068 }, "geometry": { "type": "Point", "coordinates": [ -71.091306800461822, 42.349730298781445 ] } },
{ "type": "Feature", "properties": { "OBJECTID": 70, "LOCATION": "45 E Newton St - James Ct Apts - Level P2", "LATITUDE": 42.3375804, "LONGITUDE": -71.0724663 }, "geometry": { "type": "Point", "coordinates": [ -71.072466299632367, 42.337580398751101 ] } },
{ "type": "Feature", "properties": { "OBJECTID": 71, "LOCATION": "451 River St", "LATITUDE": 42.26859436, "LONGITUDE": -71.09264791 }, "geometry": { "type": "Point", "coordinates": [ -71.092647909466251, 42.268594359058682 ] } },
{ "type": "Feature", "properties": { "OBJECTID": 72, "LOCATION": "490 Centre St - Jamaica Plain", "LATITUDE": 42.31796419, "LONGITUDE": -71.11251193 }, "geometry": { "type": "Point", "coordinates": [ -71.112511929459274, 42.317964188627613 ] } },
{ "type": "Feature", "properties": { "OBJECTID": 73, "LOCATION": "50 Evergreen St - Jamaica Plain", "LATITUDE": 42.3242489, "LONGITUDE": -71.1115687 }, "geometry": { "type": "Point", "coordinates": [ -71.111568700565215, 42.324248898661637 ] } },
{ "type": "Feature", "properties": { "OBJECTID": 74, "LOCATION": "50 Lewis St - Portside at East Pier", "LATITUDE": 42.36645838, "LONGITUDE": -71.04074358 }, "geometry": { "type": "Point", "coordinates": [ -71.040743580000822, 42.366458378841031 ] } },
{ "type": "Feature", "properties": { "OBJECTID": 75, "LOCATION": "516 E 2nd St - The Distillery", "LATITUDE": 42.3374672, "LONGITUDE": -71.0420774 }, "geometry": { "type": "Point", "coordinates": [ -71.042077400328211, 42.337467198796325 ] } },
{ "type": "Feature", "properties": { "OBJECTID": 76, "LOCATION": "523 Columbus Ave (Rear Alley)", "LATITUDE": 42.3418995, "LONGITUDE": -71.0802051 }, "geometry": { "type": "Point", "coordinates": [ -71.080205100096862, 42.34189949905889 ] } },
{ "type": "Feature", "properties": { "OBJECTID": 77, "LOCATION": "529 Main St - The Schrafft Center - Charlestown", "LATITUDE": 42.3847796, "LONGITUDE": -71.071412 }, "geometry": { "type": "Point", "coordinates": [ -71.071411999599192, 42.384779599298497 ] } },
{ "type": "Feature", "properties": { "OBJECTID": 78, "LOCATION": "530 Columbia Rd (Rear Lot)", "LATITUDE": 42.31517496, "LONGITUDE": -71.06817162 }, "geometry": { "type": "Point", "coordinates": [ -71.068171620400022, 42.315174959457288 ] } },
{ "type": "Feature", "properties": { "OBJECTID": 79, "LOCATION": "53-55 Ashford St (Rear Lot)", "LATITUDE": 42.3543038, "LONGITUDE": -71.1266072 }, "geometry": { "type": "Point", "coordinates": [ -71.126607200106307, 42.354303799348102 ] } },
{ "type": "Feature", "properties": { "OBJECTID": 80, "LOCATION": "55 Traveler St - Troy Boston - Level P1", "LATITUDE": 42.344186, "LONGITUDE": -71.0627545 }, "geometry": { "type": "Point", "coordinates": [ -71.062754499850612, 42.344185998813018 ] } },
{ "type": "Feature", "properties": { "OBJECTID": 81, "LOCATION": "6 Avery St - Ritz Carlton - Level B3", "LATITUDE": 42.3531806, "LONGITUDE": -71.0627587 }, "geometry": { "type": "Point", "coordinates": [ -71.062758700520334, 42.353180598770749 ] } },
{ "type": "Feature", "properties": { "OBJECTID": 82, "LOCATION": "600 Commercial St - North End Garage - Level 2", "LATITUDE": 42.367121, "LONGITUDE": -71.057304 }, "geometry": { "type": "Point", "coordinates": [ -71.057304000471419, 42.367120998969526 ] } },
{ "type": "Feature", "properties": { "OBJECTID": 83, "LOCATION": "62 Staniford St - Charles River Park - Boston", "LATITUDE": 42.3629135, "LONGITUDE": -71.063883 }, "geometry": { "type": "Point", "coordinates": [ -71.063883000564118, 42.362913499045881 ] } },
{ "type": "Feature", "properties": { "OBJECTID": 84, "LOCATION": "660 Washington St Apts - Level D", "LATITUDE": 42.3518415, "LONGITUDE": -71.0624303 }, "geometry": { "type": "Point", "coordinates": [ -71.062430299893194, 42.351841499223291 ] } },
{ "type": "Feature", "properties": { "OBJECTID": 85, "LOCATION": "663 Columbia Rd - Dorchester", "LATITUDE": 42.3189644, "LONGITUDE": -71.0628423 }, "geometry": { "type": "Point", "coordinates": [ -71.062842299674116, 42.31896439892575 ] } },
{ "type": "Feature", "properties": { "OBJECTID": 86, "LOCATION": "665 Washington St - The Kensington - Level 2", "LATITUDE": 42.35184318, "LONGITUDE": -71.06315657 }, "geometry": { "type": "Point", "coordinates": [ -71.063156570242583, 42.351843179268769 ] } },
{ "type": "Feature", "properties": { "OBJECTID": 87, "LOCATION": "7 Melnea Cass Blvd - Crosstown Center Garage - Level 5", "LATITUDE": 42.3323773, "LONGITUDE": -71.0737449 }, "geometry": { "type": "Point", "coordinates": [ -71.073744899401547, 42.33237729871157 ] } },
{ "type": "Feature", "properties": { "OBJECTID": 88, "LOCATION": "70 Parker Hill Ave - Mission Hill", "LATITUDE": 42.3308966, "LONGITUDE": -71.1092319 }, "geometry": { "type": "Point", "coordinates": [ -71.109231899973295, 42.330896599188591 ] } },
{ "type": "Feature", "properties": { "OBJECTID": 89, "LOCATION": "713 Huntington Ave - Countway Lot - Harvard Medical School", "LATITUDE": 42.334681, "LONGITUDE": -71.103758 }, "geometry": { "type": "Point", "coordinates": [ -71.103758000498061, 42.334680999292395 ] } },
{ "type": "Feature", "properties": { "OBJECTID": 90, "LOCATION": "737 Centre St - Jamaica Plain", "LATITUDE": 42.31102434, "LONGITUDE": -71.11512985 }, "geometry": { "type": "Point", "coordinates": [ -71.115129850167904, 42.311024338994365 ] } },
{ "type": "Feature", "properties": { "OBJECTID": 91, "LOCATION": "75 St Alphonsus St - CityView Apts", "LATITUDE": 42.33456508, "LONGITUDE": -71.10124111 }, "geometry": { "type": "Point", "coordinates": [ -71.101241109987711, 42.334565078992547 ] } },
{ "type": "Feature", "properties": { "OBJECTID": 92, "LOCATION": "75 State St - Level ML", "LATITUDE": 42.3586616, "LONGITUDE": -71.0550652 }, "geometry": { "type": "Point", "coordinates": [ -71.055065199790022, 42.358661599170688 ] } },
{ "type": "Feature", "properties": { "OBJECTID": 93, "LOCATION": "76 Gainsborough St (Rear Lot)", "LATITUDE": 42.34205425, "LONGITUDE": -71.08938643 }, "geometry": { "type": "Point", "coordinates": [ -71.089386430076914, 42.342054248676213 ] } },
{ "type": "Feature", "properties": { "OBJECTID": 94, "LOCATION": "766 Comm Ave - Boston University", "LATITUDE": 42.3500633, "LONGITUDE": -71.1081194 }, "geometry": { "type": "Point", "coordinates": [ -71.108119400344961, 42.350063298721011 ] } },
{ "type": "Feature", "properties": { "OBJECTID": 95, "LOCATION": "795 Columbus Ave - Columbus Garage - Northeastern University", "LATITUDE": 42.33811199, "LONGITUDE": -71.08633993 }, "geometry": { "type": "Point", "coordinates": [ -71.086339929532983, 42.338111989132265 ] } },
{ "type": "Feature", "properties": { "OBJECTID": 96, "LOCATION": "8 Banton St", "LATITUDE": 42.2884694, "LONGITUDE": -71.0639863 }, "geometry": { "type": "Point", "coordinates": [ -71.063986300392628, 42.288469398857636 ] } },
{ "type": "Feature", "properties": { "OBJECTID": 97, "LOCATION": "854 Beacon St - Brookline", "LATITUDE": 42.3475992, "LONGITUDE": -71.1037329 }, "geometry": { "type": "Point", "coordinates": [ -71.103732900357556, 42.347599199444673 ] } },
{ "type": "Feature", "properties": { "OBJECTID": 98, "LOCATION": "855 Comm Ave - Lot E  - Boston University ( Lower Lot )", "LATITUDE": 42.3513882, "LONGITUDE": -71.1138527 }, "geometry": { "type": "Point", "coordinates": [ -71.113852700293137, 42.351388198748502 ] } },
{ "type": "Feature", "properties": { "OBJECTID": 99, "LOCATION": "88 Constitution Rd - The Nautica", "LATITUDE": 42.3725572, "LONGITUDE": -71.058804 }, "geometry": { "type": "Point", "coordinates": [ -71.058803999452792, 42.372557198814221 ] } },
{ "type": "Feature", "properties": { "OBJECTID": 100, "LOCATION": "89 Cedar St - Roxbury", "LATITUDE": 42.3269234, "LONGITUDE": -71.09228 }, "geometry": { "type": "Point", "coordinates": [ -71.092279999722109, 42.326923398845693 ] } },
{ "type": "Feature", "properties": { "OBJECTID": 101, "LOCATION": "91 Winthrop St", "LATITUDE": 42.25641277, "LONGITUDE": -71.12371679 }, "geometry": { "type": "Point", "coordinates": [ -71.123716790470922, 42.256412769301157 ] } },
{ "type": "Feature", "properties": { "OBJECTID": 102, "LOCATION": "99 Auckland St - Dorchester", "LATITUDE": 42.31075485, "LONGITUDE": -71.05672937 }, "geometry": { "type": "Point", "coordinates": [ -71.056729369414342, 42.310754848964116 ] } },
{ "type": "Feature", "properties": { "OBJECTID": 103, "LOCATION": "A St\/Melcher St - 315 on A St Apts", "LATITUDE": 42.3487216, "LONGITUDE": -71.0485878 }, "geometry": { "type": "Point", "coordinates": [ -71.048587800255532, 42.348721599124893 ] } },
{ "type": "Feature", "properties": { "OBJECTID": 104, "LOCATION": "A St\/Necco St", "LATITUDE": 42.348172, "LONGITUDE": -71.05074882 }, "geometry": { "type": "Point", "coordinates": [ -71.050748819679171, 42.348171998701083 ] } },
{ "type": "Feature", "properties": { "OBJECTID": 105, "LOCATION": "Ashmont St\/Ashmont Pk - All Saints Church", "LATITUDE": 42.2855684, "LONGITUDE": -71.0631568 }, "geometry": { "type": "Point", "coordinates": [ -71.06315680018453, 42.285568399359072 ] } },
{ "type": "Feature", "properties": { "OBJECTID": 106, "LOCATION": "Atlantic Ave\/Commercial St - Lewis Wharf", "LATITUDE": 42.36355609, "LONGITUDE": -71.05080895 }, "geometry": { "type": "Point", "coordinates": [ -71.050808950230646, 42.363556089041531 ] } },
{ "type": "Feature", "properties": { "OBJECTID": 107, "LOCATION": "Batten Way - HBS - Harvard University", "LATITUDE": 42.36467361, "LONGITUDE": -71.12322955 }, "geometry": { "type": "Point", "coordinates": [ -71.123229549845291, 42.364673609242821 ] } },
{ "type": "Feature", "properties": { "OBJECTID": 108, "LOCATION": "Beach St\/Lincoln St", "LATITUDE": 42.351316, "LONGITUDE": -71.0586079 }, "geometry": { "type": "Point", "coordinates": [ -71.058607900190637, 42.351315999375217 ] } },
{ "type": "Feature", "properties": { "OBJECTID": 109, "LOCATION": "Boston Common Garage - Middle Level", "LATITUDE": 42.35474494, "LONGITUDE": -71.06813371 }, "geometry": { "type": "Point", "coordinates": [ -71.068133709417154, 42.354744939009201 ] } },
{ "type": "Feature", "properties": { "OBJECTID": 110, "LOCATION": "Boylston St\/Amory St - Boylston Congregational Church (Rear Lot)", "LATITUDE": 42.31721294, "LONGITUDE": -71.10325344 }, "geometry": { "type": "Point", "coordinates": [ -71.103253439436628, 42.317212939108522 ] } },
{ "type": "Feature", "properties": { "OBJECTID": 111, "LOCATION": "Brainerd Rd\/Fiske Tr", "LATITUDE": 42.34856574, "LONGITUDE": -71.13048256 }, "geometry": { "type": "Point", "coordinates": [ -71.130482559963596, 42.348565739324641 ] } },
{ "type": "Feature", "properties": { "OBJECTID": 112, "LOCATION": "Buick St\/Comm Ave - Boston University", "LATITUDE": 42.3515922, "LONGITUDE": -71.1157037 }, "geometry": { "type": "Point", "coordinates": [ -71.115703700108924, 42.351592199360191 ] } },
{ "type": "Feature", "properties": { "OBJECTID": 113, "LOCATION": "Butler T", "LATITUDE": 42.2719023, "LONGITUDE": -71.0639373 }, "geometry": { "type": "Point", "coordinates": [ -71.063937299777308, 42.271902298973401 ] } },
{ "type": "Feature", "properties": { "OBJECTID": 114, "LOCATION": "Castle Ct\/E Berkeley St - Castle Sq Apts", "LATITUDE": 42.34504958, "LONGITUDE": -71.06772963 }, "geometry": { "type": "Point", "coordinates": [ -71.067729630372497, 42.345049578943936 ] } },
{ "type": "Feature", "properties": { "OBJECTID": 115, "LOCATION": "Centre St\/Clementine Pk - Epiphany School - Dorchester", "LATITUDE": 42.29262395, "LONGITUDE": -71.06583196 }, "geometry": { "type": "Point", "coordinates": [ -71.065831959470799, 42.292623949341561 ] } },
{ "type": "Feature", "properties": { "OBJECTID": 116, "LOCATION": "Chestnut Hill Ave\/Beacon St - Cassidy Playground", "LATITUDE": 42.33568892, "LONGITUDE": -71.15100802000001 }, "geometry": { "type": "Point", "coordinates": [ -71.151008019529769, 42.335688918962198 ] } },
{ "type": "Feature", "properties": { "OBJECTID": 117, "LOCATION": "Clarendon St\/Montgomery St (Rear Lot)", "LATITUDE": 42.3442219, "LONGITUDE": -71.0723095 }, "geometry": { "type": "Point", "coordinates": [ -71.07230949971715, 42.344221899075436 ] } },
{ "type": "Feature", "properties": { "OBJECTID": 118, "LOCATION": "Columbus Ave\/Centre St - Roxbury Community College", "LATITUDE": 42.32526811, "LONGITUDE": -71.09711336 }, "geometry": { "type": "Point", "coordinates": [ -71.097113359807651, 42.32526810912362 ] } },
{ "type": "Feature", "properties": { "OBJECTID": 119, "LOCATION": "Columbus Ave\/Ritchie St - Roxbury", "LATITUDE": 42.3224118, "LONGITUDE": -71.0979463 }, "geometry": { "type": "Point", "coordinates": [ -71.097946300467555, 42.322411799218614 ] } },
{ "type": "Feature", "properties": { "OBJECTID": 120, "LOCATION": "Comm Ave\/Gordon St - Allston", "LATITUDE": 42.3495008, "LONGITUDE": -71.1400082 }, "geometry": { "type": "Point", "coordinates": [ -71.140008199776105, 42.349500798861285 ] } },
{ "type": "Feature", "properties": { "OBJECTID": 121, "LOCATION": "Comm Ave\/Strathmore Rd - Brighton", "LATITUDE": 42.3391962, "LONGITUDE": -71.1529228 }, "geometry": { "type": "Point", "coordinates": [ -71.152922799446117, 42.339196198919723 ] } },
{ "type": "Feature", "properties": { "OBJECTID": 122, "LOCATION": "Corey Rd\/Washington St - Brighton", "LATITUDE": 42.342691, "LONGITUDE": -71.139622 }, "geometry": { "type": "Point", "coordinates": [ -71.139621999888163, 42.342690999202354 ] } },
{ "type": "Feature", "properties": { "OBJECTID": 123, "LOCATION": "Cross St\/Fulton St (On-Street)", "LATITUDE": 42.36173843, "LONGITUDE": -71.05415886 }, "geometry": { "type": "Point", "coordinates": [ -71.054158860285938, 42.361738428627902 ] } },
{ "type": "Feature", "properties": { "OBJECTID": 124, "LOCATION": "Cumberland St\/Public Alley 403 - Greenhouse Apts", "LATITUDE": 42.3446698, "LONGITUDE": -71.0822009 }, "geometry": { "type": "Point", "coordinates": [ -71.082200900226212, 42.344669799387397 ] } },
{ "type": "Feature", "properties": { "OBJECTID": 125, "LOCATION": "Dade St\/Washington St - Haley House Bakery Cafe", "LATITUDE": 42.3320572, "LONGITUDE": -71.0825309 }, "geometry": { "type": "Point", "coordinates": [ -71.082530899771086, 42.332057198954118 ] } },
{ "type": "Feature", "properties": { "OBJECTID": 126, "LOCATION": "Dorchester Ave\/Roach St - Dorchester Tire", "LATITUDE": 42.3108861, "LONGITUDE": -71.0573082 }, "geometry": { "type": "Point", "coordinates": [ -71.057308199570087, 42.310886099508124 ] } },
{ "type": "Feature", "properties": { "OBJECTID": 127, "LOCATION": "Dorchester Ave\/Wrentham St", "LATITUDE": 42.287507, "LONGITUDE": -71.064248 }, "geometry": { "type": "Point", "coordinates": [ -71.064248000280813, 42.287506999276104 ] } },
{ "type": "Feature", "properties": { "OBJECTID": 128, "LOCATION": "E Newton St\/BioSquare Dr - BU Medical (On-Street)", "LATITUDE": 42.3352365, "LONGITUDE": -71.06925973 }, "geometry": { "type": "Point", "coordinates": [ -71.069259730569001, 42.335236498733572 ] } },
{ "type": "Feature", "properties": { "OBJECTID": 129, "LOCATION": "Edgerly Rd\/Norway St - Church Park Apts", "LATITUDE": 42.3451502, "LONGITUDE": -71.0874447 }, "geometry": { "type": "Point", "coordinates": [ -71.087444700598439, 42.345150199289606 ] } },
{ "type": "Feature", "properties": { "OBJECTID": 130, "LOCATION": "Eliot St\/Columbus Ave - Motor Mart Garage - Level 4", "LATITUDE": 42.3510123, "LONGITUDE": -71.0679728 }, "geometry": { "type": "Point", "coordinates": [ -71.067972799679708, 42.351012298876839 ] } },
{ "type": "Feature", "properties": { "OBJECTID": 131, "LOCATION": "Ellery St\/Dexter St", "LATITUDE": 42.33020816, "LONGITUDE": -71.05839029000001 }, "geometry": { "type": "Point", "coordinates": [ -71.058390289684468, 42.33020815865882 ] } },
{ "type": "Feature", "properties": { "OBJECTID": 132, "LOCATION": "Fairmount Commuter Rail", "LATITUDE": 42.25404819, "LONGITUDE": -71.11911497 }, "geometry": { "type": "Point", "coordinates": [ -71.119114969713095, 42.25404818950215 ] } },
{ "type": "Feature", "properties": { "OBJECTID": 133, "LOCATION": "Forest Hills T", "LATITUDE": 42.29880934, "LONGITUDE": -71.11436734 }, "geometry": { "type": "Point", "coordinates": [ -71.11436733981526, 42.298809338720858 ] } },
{ "type": "Feature", "properties": { "OBJECTID": 134, "LOCATION": "Franklin St\/India St", "LATITUDE": 42.3580043, "LONGITUDE": -71.052197 }, "geometry": { "type": "Point", "coordinates": [ -71.052197000413798, 42.358004299238679 ] } },
{ "type": "Feature", "properties": { "OBJECTID": 135, "LOCATION": "Gainsborough St \/ St Botolph St - Matthews Arena Lot - Northeastern University", "LATITUDE": 42.3415302, "LONGITUDE": -71.0843298 }, "geometry": { "type": "Point", "coordinates": [ -71.084329799900175, 42.341530198833198 ] } },
{ "type": "Feature", "properties": { "OBJECTID": 136, "LOCATION": "Harbor Point Blvd\/Beach Point Pl - Harbor Point Apts", "LATITUDE": 42.3188343, "LONGITUDE": -71.0429285 }, "geometry": { "type": "Point", "coordinates": [ -71.042928500147227, 42.318834298952581 ] } },
{ "type": "Feature", "properties": { "OBJECTID": 137, "LOCATION": "Hyde Park Commuter Rail", "LATITUDE": 42.25428892, "LONGITUDE": -71.12540893000001 }, "geometry": { "type": "Point", "coordinates": [ -71.125408930425934, 42.254288919043994 ] } },
{ "type": "Feature", "properties": { "OBJECTID": 138, "LOCATION": "Jean Yawkey Ctr - Emmanuel College", "LATITUDE": 42.34041389, "LONGITUDE": -71.10357464000001 }, "geometry": { "type": "Point", "coordinates": [ -71.103574639808699, 42.340413889352483 ] } },
{ "type": "Feature", "properties": { "OBJECTID": 139, "LOCATION": "JFK\/UMass T", "LATITUDE": 42.3201816, "LONGITUDE": -71.0534575 }, "geometry": { "type": "Point", "coordinates": [ -71.053457499550376, 42.320181599166254 ] } },
{ "type": "Feature", "properties": { "OBJECTID": 140, "LOCATION": "John A Andrew St - Sumner Hill House", "LATITUDE": 42.3089304, "LONGITUDE": -71.1103408 }, "geometry": { "type": "Point", "coordinates": [ -71.110340800210309, 42.308930399503033 ] } },
{ "type": "Feature", "properties": { "OBJECTID": 141, "LOCATION": "Kilby St\/Milk St (On-Street)", "LATITUDE": 42.3575606, "LONGITUDE": -71.0547381 }, "geometry": { "type": "Point", "coordinates": [ -71.05473810043091, 42.357560599079719 ] } },
{ "type": "Feature", "properties": { "OBJECTID": 142, "LOCATION": "Klarman Hall - Harvard University", "LATITUDE": 42.36450573, "LONGITUDE": -71.12070488000001 }, "geometry": { "type": "Point", "coordinates": [ -71.120704880526191, 42.364505729240946 ] } },
{ "type": "Feature", "properties": { "OBJECTID": 143, "LOCATION": "Logan International Airport - Level 2", "LATITUDE": 42.36772108, "LONGITUDE": -71.03096849000001 }, "geometry": { "type": "Point", "coordinates": [ -71.030968489890455, 42.367721078957658 ] } },
{ "type": "Feature", "properties": { "OBJECTID": 144, "LOCATION": "Mass Ave\/Columbus St", "LATITUDE": 42.3404044, "LONGITUDE": -71.0811573 }, "geometry": { "type": "Point", "coordinates": [ -71.081157299943513, 42.340404399215863 ] } },
{ "type": "Feature", "properties": { "OBJECTID": 145, "LOCATION": "Mattapan T", "LATITUDE": 42.26796183, "LONGITUDE": -71.09233436 }, "geometry": { "type": "Point", "coordinates": [ -71.092334359737549, 42.26796182863847 ] } },
{ "type": "Feature", "properties": { "OBJECTID": 146, "LOCATION": "North Point Dr\/Island View Pl - Harbor Point Apts", "LATITUDE": 42.320022, "LONGITUDE": -71.0436265 }, "geometry": { "type": "Point", "coordinates": [ -71.043626500577432, 42.320021998621321 ] } },
{ "type": "Feature", "properties": { "OBJECTID": 147, "LOCATION": "One Constitution Ctr", "LATITUDE": 42.3706239, "LONGITUDE": -71.0604922 }, "geometry": { "type": "Point", "coordinates": [ -71.060492200032826, 42.370623899412159 ] } },
{ "type": "Feature", "properties": { "OBJECTID": 148, "LOCATION": "Orient Heights T", "LATITUDE": 42.38688083, "LONGITUDE": -71.00324179 }, "geometry": { "type": "Point", "coordinates": [ -71.003241789720306, 42.386880828887108 ] } },
{ "type": "Feature", "properties": { "OBJECTID": 149, "LOCATION": "Oyster Bay Rd\/Beach Point Pl - Harbor Point Apts", "LATITUDE": 42.31911454, "LONGITUDE": -71.03932214 }, "geometry": { "type": "Point", "coordinates": [ -71.039322139786009, 42.31911453950763 ] } },
{ "type": "Feature", "properties": { "OBJECTID": 150, "LOCATION": "Park Dr\/Jersey St (Rear Alley)", "LATITUDE": 42.342413, "LONGITUDE": -71.09594 }, "geometry": { "type": "Point", "coordinates": [ -71.095939999838563, 42.342412999278068 ] } },
{ "type": "Feature", "properties": { "OBJECTID": 151, "LOCATION": "Park Science Ctr - Simmons University", "LATITUDE": 42.3390832, "LONGITUDE": -71.1000654 }, "geometry": { "type": "Point", "coordinates": [ -71.100065400474847, 42.339083199512231 ] } },
{ "type": "Feature", "properties": { "OBJECTID": 152, "LOCATION": "Parmelee St (Alley)", "LATITUDE": 42.335864, "LONGITUDE": -71.076793 }, "geometry": { "type": "Point", "coordinates": [ -71.076792999771072, 42.335863998640306 ] } },
{ "type": "Feature", "properties": { "OBJECTID": 153, "LOCATION": "Parsons St\/Washington St - Brighton", "LATITUDE": 42.3493084, "LONGITUDE": -71.1561683 }, "geometry": { "type": "Point", "coordinates": [ -71.15616829974519, 42.349308399055793 ] } },
{ "type": "Feature", "properties": { "OBJECTID": 154, "LOCATION": "Post Office Sq", "LATITUDE": 42.35604555, "LONGITUDE": -71.0553217 }, "geometry": { "type": "Point", "coordinates": [ -71.055321699675673, 42.356045548777473 ] } },
{ "type": "Feature", "properties": { "OBJECTID": 155, "LOCATION": "Public Alley 416 btwn Gloucester St & Fairfield St (Alley)", "LATITUDE": 42.3514073, "LONGITUDE": -71.0847676 }, "geometry": { "type": "Point", "coordinates": [ -71.084767599475597, 42.351407299197042 ] } },
{ "type": "Feature", "properties": { "OBJECTID": 156, "LOCATION": "Public Alley 419 btwn Dartmouth St & Clarendon St (Alley)", "LATITUDE": 42.353879, "LONGITUDE": -71.078187 }, "geometry": { "type": "Point", "coordinates": [ -71.078187000317669, 42.353878998697155 ] } },
{ "type": "Feature", "properties": { "OBJECTID": 157, "LOCATION": "Public Alley 421 btwn Berkeley St & Arlington St (Alley)", "LATITUDE": 42.35482227, "LONGITUDE": -71.07320998 }, "geometry": { "type": "Point", "coordinates": [ -71.073209979595006, 42.35482226886554 ] } },
{ "type": "Feature", "properties": { "OBJECTID": 158, "LOCATION": "Public Alley 442 btwn Gloucester St & Fairfield St (Alley)", "LATITUDE": 42.3491019, "LONGITUDE": -71.0834227 }, "geometry": { "type": "Point", "coordinates": [ -71.083422699640664, 42.349101899022727 ] } },
{ "type": "Feature", "properties": { "OBJECTID": 159, "LOCATION": "Roslindale Village Commuter Rail", "LATITUDE": 42.287293, "LONGITUDE": -71.13144145 }, "geometry": { "type": "Point", "coordinates": [ -71.131441449712398, 42.287292999231127 ] } },
{ "type": "Feature", "properties": { "OBJECTID": 160, "LOCATION": "Ruggles St\/Leon St - Ryder Lot - Northeastern University", "LATITUDE": 42.3369107, "LONGITUDE": -71.0911112 }, "geometry": { "type": "Point", "coordinates": [ -71.091111199743807, 42.336910698889582 ] } },
{ "type": "Feature", "properties": { "OBJECTID": 161, "LOCATION": "Savin Hill T", "LATITUDE": 42.31072131, "LONGITUDE": -71.0539526 }, "geometry": { "type": "Point", "coordinates": [ -71.053952600219176, 42.310721308998914 ] } },
{ "type": "Feature", "properties": { "OBJECTID": 162, "LOCATION": "Sleeper St\/Northern Ave (On-Street)", "LATITUDE": 42.35393426, "LONGITUDE": -71.04824827 }, "geometry": { "type": "Point", "coordinates": [ -71.048248269804319, 42.353934259062733 ] } },
{ "type": "Feature", "properties": { "OBJECTID": 163, "LOCATION": "South Boston Waterfront Transportation Center - EV Charging Stn - Level 4", "LATITUDE": 42.3480055, "LONGITUDE": -71.0430862 }, "geometry": { "type": "Point", "coordinates": [ -71.04308620048586, 42.348005499308897 ] } },
{ "type": "Feature", "properties": { "OBJECTID": 164, "LOCATION": "South Boston Waterfront Transportation Center - Level 3", "LATITUDE": 42.3483479, "LONGITUDE": -71.042826 }, "geometry": { "type": "Point", "coordinates": [ -71.042826000045608, 42.348347899147605 ] } },
{ "type": "Feature", "properties": { "OBJECTID": 165, "LOCATION": "South St\/Tufts St (On-Street)", "LATITUDE": 42.35168, "LONGITUDE": -71.05729617 }, "geometry": { "type": "Point", "coordinates": [ -71.057296169490357, 42.351679999203981 ] } },
{ "type": "Feature", "properties": { "OBJECTID": 166, "LOCATION": "Spice St\/Cambridge St (On-Street)", "LATITUDE": 42.3834138, "LONGITUDE": -71.0752371 }, "geometry": { "type": "Point", "coordinates": [ -71.07523709963418, 42.383413798837445 ] } },
{ "type": "Feature", "properties": { "OBJECTID": 167, "LOCATION": "Spurr St\/N Harvard St (On-Street)", "LATITUDE": 42.36272943, "LONGITUDE": -71.13036815 }, "geometry": { "type": "Point", "coordinates": [ -71.1303681505443, 42.362729429492497 ] } },
{ "type": "Feature", "properties": { "OBJECTID": 168, "LOCATION": "Staniford St\/Merrimac St (On-Street)", "LATITUDE": 42.36374134, "LONGITUDE": -71.06304748 }, "geometry": { "type": "Point", "coordinates": [ -71.06304747960607, 42.363741339046229 ] } },
{ "type": "Feature", "properties": { "OBJECTID": 169, "LOCATION": "Stuart St\/Charles St S - Revere Hotel - Level 1", "LATITUDE": 42.3504219, "LONGITUDE": -71.0673895 }, "geometry": { "type": "Point", "coordinates": [ -71.067389499709876, 42.350421899447198 ] } },
{ "type": "Feature", "properties": { "OBJECTID": 170, "LOCATION": "Sydney St\/Carson St", "LATITUDE": 42.32003954, "LONGITUDE": -71.05348736000001 }, "geometry": { "type": "Point", "coordinates": [ -71.053487359977183, 42.320039539152638 ] } },
{ "type": "Feature", "properties": { "OBJECTID": 171, "LOCATION": "Travis St\/Western Ave - Harvard University", "LATITUDE": 42.36233646, "LONGITUDE": -71.12799328 }, "geometry": { "type": "Point", "coordinates": [ -71.127993280183404, 42.362336459050681 ] } },
{ "type": "Feature", "properties": { "OBJECTID": 172, "LOCATION": "Vancouver St\/Ward St - MassArt (On-Street)", "LATITUDE": 42.3358577, "LONGITUDE": -71.0977959 }, "geometry": { "type": "Point", "coordinates": [ -71.097795899435226, 42.335857699236229 ] } },
{ "type": "Feature", "properties": { "OBJECTID": 173, "LOCATION": "Vine St\/Bunker Hill St (On-Street)", "LATITUDE": 42.37706165, "LONGITUDE": -71.05688614 }, "geometry": { "type": "Point", "coordinates": [ -71.056886140225629, 42.37706164876159 ] } },
{ "type": "Feature", "properties": { "OBJECTID": 174, "LOCATION": "Washington St\/Rossmore Rd - JP Car Wash (Rear Lot)", "LATITUDE": 42.30509597, "LONGITUDE": -71.10770141 }, "geometry": { "type": "Point", "coordinates": [ -71.107701409472668, 42.305095969228567 ] } },
{ "type": "Feature", "properties": { "OBJECTID": 175, "LOCATION": "Washington St\/South St - Alfa Auto Fuel - Roslindale", "LATITUDE": 42.2891695, "LONGITUDE": -71.1255651 }, "geometry": { "type": "Point", "coordinates": [ -71.125565099620303, 42.289169499337248 ] } },
{ "type": "Feature", "properties": { "OBJECTID": 176, "LOCATION": "West Roxbury Commuter Rail", "LATITUDE": 42.2812145, "LONGITUDE": -71.159267 }, "geometry": { "type": "Point", "coordinates": [ -71.159266999470375, 42.281214498693821 ] } }
]
}
